[{"city": "Claremont", "review_count": 756, "name": "The Back Abbey", "neighborhoods": [], "url": "http://www.yelp.com/biz/the-back-abbey-claremont", "type": "business", "business_id": "81IjU5L-t-QQwsE38C63hQ", "full_address": "128 N Oberlin Ave\nClaremont, CA 91711", "latitude": 34.0948841, "state": "CA", "longitude": -117.7206854, "stars": 4.0, "schools": ["Harvey Mudd College"], "_id":{"$oid":"55296c4de4386722a83f21f0"}, "open": true, "categories": ["Burgers", "Gastropubs", "Restaurants"], "photo_url": "http://s3-media4.ak.yelpcdn.com/bphoto/19sYSVQKzDIHEJDOJlgMPA/ms.jpg"},
{"city": "Claremont", "review_count": 391, "name": "Eureka! Burger", "neighborhoods": [], "url": "http://www.yelp.com/biz/eureka-burger-claremont-2", "type": "business", "business_id": "TFxcmjVIsW5bdW7rilHHpQ", "full_address": "580 W First St\nClaremont, CA 91711", "latitude": 34.094415, "state": "CA", "longitude": -117.7215816, "stars": 4.0, "schools": ["Harvey Mudd College"], "_id":{"$oid":"55296c4de4386722a83f322d "},"open": true, "categories": ["Burgers", "Bars", "Nightlife", "Restaurants"], "photo_url": "http://s3-media2.ak.yelpcdn.com/bphoto/zr7YppJX-9eMBPzOmR1Obg/ms.jpg"},
{"city": "Carrboro", "review_count": 112, "name": "Milltown", "neighborhoods": [], "url": "http://www.yelp.com/biz/milltown-carrboro", "type": "business", "business_id": "9uVFews5pR3nWI7shkhozA", "full_address": "307 E Main St\nCarrboro, NC 27510", "latitude": 35.9108925, "state": "NC", "longitude": -79.0680629, "stars": 3.5, "schools": ["University of North Carolina - Chapel Hill"], "_id":{"$oid":"55296c4de4386722a83f2ef9"} , "open": true, "categories": ["Gastropubs", "American (New)", "Restaurants"], "photo_url": "http://s3-media3.ak.yelpcdn.com/bphoto/tMFlZANk3lGoqOhQI80IrA/ms.jpg" },
{"city": "Claremont", "review_count": 125, "name": "Union On Yale", "neighborhoods": [], "url": "http://www.yelp.com/biz/union-on-yale-claremont", "type": "business", "business_id": "02A7EMn1GbOtsX3w8NwTAA", "full_address": "232 Yale Ave\nClaremont, CA 91711", "latitude": 34.096334, "state": "CA", "longitude": -117.717543, "stars": 3.5, "schools": ["Harvey Mudd College"], "_id":{"$oid":"55296c4de4386722a83f22d1"}, "open": true, "categories": ["Bars", "Restaurants", "Nightlife", "Lounges", "American (New)", "Pizza"], "photo_url":"http://s3-media2.ak.yelpcdn.com/bphoto/9L89rzsZl_xfvRzV1dcRDw/ms.jpg"},
{"city": "New York", "review_count": 161, "name": "Bier International", "neighborhoods": ["Harlem"], "url": "http://www.yelp.com/biz/bier-international-new-york", "type": "business", "business_id": "Fk495HaokZDrGkAG8s_dlg", "full_address": "2099 Frederick Douglass Blvd\nHarlem\nNew York, NY 10026", "latitude": 40.802618946349, "state": "NY", "longitude": -73.956710100174, "stars": 3.5, "schools": ["Columbia University"], "_id":{"$oid":"55296c4ee4386722a83f4815"}, "open": true, "categories": ["German", "Bars", "Nightlife", "Restaurants"], "photo_url": "http://s3-media3.ak.yelpcdn.com/bphoto/laNwydgFVvrAaIg-3z2Mbg/ms.jpg" },
{"city": "Claremont", "review_count": 178, "name": "Heroes Restaurant", "neighborhoods": [], "url": "http://www.yelp.com/biz/heroes-restaurant-claremont", "type": "business", "business_id": "f5nja4dPNifl6ywQStdQKQ", "full_address": "131 Yale Ave\nClaremont, CA 91711", "latitude": 34.095313, "state": "CA", "longitude": -117.718145, "stars": 3.0, "schools": ["Harvey Mudd College"], "_id":{"$oid":"55296c4fe4386722a83f4c82"},  "open": true, "categories": ["Burgers", "Restaurants"], "photo_url": "http://s3-media4.ak.yelpcdn.com/bphoto/FIh6UsFB94_rVo7t1lA9Zw/ms.jpg" },
{"city": "Pasadena", "review_count": 520, "name": "The Counter", "neighborhoods": ["Pasadena"], "url": "http://www.yelp.com/biz/the-counter-pasadena", "type": "business", "business_id": "MAW0cVbtqZEoXVESDkVDFQ", "full_address": "140 S Shoppers Ln\nPasadena\nPasadena, CA 91101", "latitude": 34.1434854, "state": "CA", "longitude": -118.1314852, "stars": 4.0, "schools": ["California Institute of Technology"], "_id":{"$oid":"55296c4de4386722a83f27d0"},  "open": true, "categories": ["Burgers", "Restaurants"], "photo_url": "http://s3-media2.ak.yelpcdn.com/bphoto/8EpHus7BSE52QeCEY-7zLg/ms.jpg" },
{"city": "Cambridge", "review_count": 313, "name": "Lord Hobo", "neighborhoods": ["Inman Square", "Kendall Square/MIT"], "url": "http://www.yelp.com/biz/lord-hobo-cambridge", "type": "business", "business_id": "A3D8gBGNmt51kvcI0GkaGQ", "full_address": "92 Hampshire St\nInman Square\nCambridge, MA 02141", "latitude": 42.3687887, "state": "MA", "longitude": -71.0948726, "stars": 3.5, "schools": ["Massachusetts Institute of Technology", "Harvard University"], "_id":{"$oid":"55296c4de4386722a83f2bc5"}, "open": true, "categories": ["Bars", "American (Traditional)", "Nightlife", "Restaurants"], "photo_url": "http://s3-media1.ak.yelpcdn.com/bphoto/4aYimShqmBfeC_tTDlzUvw/ms.jpg"  },
{"city": "Cambridge", "review_count": 251, "name": "Central Kitchen", "neighborhoods": ["Central Square"], "url": "http://www.yelp.com/biz/central-kitchen-cambridge", "type": "business", "business_id": "F6Qsav77WqGhstQ1E2xRGQ", "full_address": "567 Massachusetts Ave\nCentral Square\nCambridge, MA 02139", "latitude": 42.3646997, "state": "MA", "longitude": -71.1024869, "stars": 4.0, "schools": ["Massachusetts Institute of Technology", "Harvard University"], "_id":{"$oid":"55296c4ee4386722a83f4af7"}, "open": true, "categories": ["American (New)", "Restaurants"], "photo_url": "http://s3-media2.ak.yelpcdn.com/bphoto/fa7stE8blBril1VpSWj-oQ/ms.jpg" },
{"city": "San Luis Obispo", "review_count": 153, "name": "Eureka!", "neighborhoods": [], "url": "http://www.yelp.com/biz/eureka-san-luis-obispo", "type": "business", "business_id": "q2CDww5vB2ZvLg0fjEWrvQ", "full_address": "1141 Chorro St\nSan Luis Obispo, CA 93401", "latitude": 35.2790331, "state": "CA", "longitude": -120.662545, "stars": 4.0, "schools": ["California Polytechnic State University"], "_id":{"$oid":"55296c4ee4386722a83f3f41"},  "open": true, "categories": ["Burgers", "Bars", "Nightlife", "Lounges", "Restaurants"], "photo_url": "http://s3-media2.ak.yelpcdn.com/bphoto/bIjXp8gtH28WT0cL3at_AQ/ms.jpg"}]
