[{"city": "Cambridge", "review_count": 252, "name": "Veggie Galaxy", "neighborhoods": ["Central Square"], "url": "http://www.yelp.com/biz/veggie-galaxy-cambridge", "type": "business", "business_id": "qw5gR8vW7mSOK4VROSwdMA", "full_address": "450 Massachusetts Ave\nCentral Square\nCambridge, MA 02139", "latitude": 42.3635928, "state": "MA", "longitude": -71.1009539, "stars": 4.0, "schools": ["Massachusetts Institute of Technology", "Harvard University"], "_id": {
        "$oid": "55296c4de4386722a83f2adc "
    },"open": true, "categories": ["Vegetarian", "American (New)", "Vegan", "Restaurants"], "photo_url": "http://s3-media2.ak.yelpcdn.com/bphoto/Ys5AzuDgWkc8-hBC9JUz3A/ms.jpg"},{"city": "Cambridge", "review_count": 221, "name": "Zoe's", "neighborhoods": ["Harvard Square"], "url": "http://www.yelp.com/biz/zoes-cambridge", "type": "business", "business_id": "GHe641VggznYYFnD9RM8pQ", "full_address": "1105 Massachusetts Ave\nHarvard Square\nCambridge, MA 02138", "latitude": 42.3706518, "state": "MA", "longitude": -71.1136496, "stars": 3.5, "schools": ["Massachusetts Institute of Technology", "Harvard University"], "_id": {
        "$oid": "55296c4fe4386722a83f5416"
    },"open": true, "categories": ["Greek", "Breakfast & Brunch", "Restaurants"], "photo_url": "http://s3-media1.ak.yelpcdn.com/bphoto/MOi4aZ3W-brbFXetlf3iYA/ms.jpg"},{"city": "Palo Alto", "review_count": 262, "name": "Palo Alto Creamery Fountain & Grill", "neighborhoods": [], "url": "http://www.yelp.com/biz/palo-alto-creamery-fountain-and-grill-palo-alto-2", "type": "business", "business_id": "KG3Y2qyrru2SZxR_c5gHyg", "full_address": "180 Stanford Shopping Center\nPalo Alto, CA 94301", "latitude": 37.4441835, "state": "CA", "longitude": -122.1706461, "stars": 3.5, "schools": ["Stanford University"], "_id": {
        "$oid": "55296c4ee4386722a83f42ea "
    },"open": true, "categories": ["Food", "Ice Cream & Frozen Yogurt", "American (Traditional)", "Diners", "Restaurants"], "photo_url": "http://s3-media3.ak.yelpcdn.com/bphoto/wqqya-MQj9rE0nk10ch8DA/ms.jpg"},{"city": "Cambridge", "review_count": 185, "name": "Brookline Lunch", "neighborhoods": ["Central Square"], "url": "http://www.yelp.com/biz/brookline-lunch-cambridge", "type": "business", "business_id": "UZJ361wkdyZfxWax3oc3rg", "full_address": "9 Brookline St\nCentral Square\nCambridge, MA 02138", "latitude": 42.3637577, "state": "MA", "longitude": -71.1017264, "stars": 4.0, "schools": ["Massachusetts Institute of Technology", "Harvard University"], "_id": {
        "$oid": "55296c4ee4386722a83f41bd "
    }, "open": true, "categories": ["Middle Eastern", "Diners", "Restaurants"], "photo_url": "http://s3-media4.ak.yelpcdn.com/bphoto/ufVp_Wcz9ud3cp7J6tpgFw/ms.jpg"},{"city": "New York", "review_count": 280, "name": "Kitchenette Uptown", "neighborhoods": ["Morningside Heights"], "url": "http://www.yelp.com/biz/kitchenette-uptown-new-york", "type": "business", "business_id": "ugekAf0_3hreoD5VJQjkCg", "full_address": "1272 Amsterdam Ave\nMorningside Heights\nNew York, NY 10027", "latitude": 40.8112347, "state": "NY", "longitude": -73.9579978, "stars": 3.5, "schools": ["Columbia University"], "_id": {
        "$oid": "55296c4de4386722a83f2a2b "
    }, "open": true, "categories": ["Food", "Desserts", "Breakfast & Brunch", "American (Traditional)", "Restaurants"], "photo_url": "http://s3-media2.ak.yelpcdn.com/bphoto/NHuefBTrBUbgmYMPVyg_FA/ms.jpg"},{"city": "Berkeley", "review_count": 436, "name": "Saturn Cafe", "neighborhoods": ["Downtown Berkeley", "UC Campus Area"], "url": "http://www.yelp.com/biz/saturn-cafe-berkeley", "type": "business", "business_id": "S4a-MaxMszQjSPSs1JSM2A", "full_address": "2175 Allston Way\nDowntown Berkeley\nBerkeley, CA 94704", "latitude": 37.8698214, "state": "CA", "longitude": -122.2659885, "stars": 3.5, "schools": ["University of California at Berkeley"], "_id": {
        "$oid": "55296c4ee4386722a83f3bea "
    }, "open": true, "categories": ["Vegetarian", "Vegan", "Restaurants"], "photo_url": "http://s3-media2.ak.yelpcdn.com/bphoto/KHCLBgt2CyvP_J_ZBXL8sg/ms.jpg"},{"city": "New York", "review_count": 169, "name": "Deluxe on Broadway", "neighborhoods": ["Morningside Heights"], "url": "http://www.yelp.com/biz/deluxe-on-broadway-new-york", "type": "business", "business_id": "U7UVERrPVvLJ8HN6TI92DQ", "full_address": "2896 Broadway\nMorningside Heights\nNew York, NY 10025", "latitude": 40.8058098, "state": "NY", "longitude": -73.9652083, "stars": 3.0, "schools": ["Columbia University"], "_id": {
        "$oid": "55296c4de4386722a83f2e1f "
    }, "open": true, "categories": ["Diners", "Restaurants"], "photo_url": "http://s3-media4.ak.yelpcdn.com/bphoto/XXNdLihiMk828-xabTrQAQ/ms.jpg"},{"city": "Cambridge", "review_count": 270, "name": "Flour Bakery + Cafe Central Square", "neighborhoods": ["Kendall Square/MIT"], "url": "http://www.yelp.com/biz/flour-bakery-caf%C3%A9-central-square-cambridge-2", "type": "business", "business_id": "s9c3ufuhJ3phG1XI0zey0Q", "full_address": "190 Massachusetts Ave\nKendall Square/MIT\nCambridge, MA 02139", "latitude": 42.360948, "state": "MA", "longitude": -71.0962379, "stars": 4.0, "schools": ["Massachusetts Institute of Technology", "Harvard University"], "_id": {
        "$oid": "55296c4ee4386722a83f4b5f "
    }, "open": true, "categories": ["Food", "Bakeries", "Coffee & Tea", "Sandwiches", "Restaurants"], "photo_url": "http://s3-media3.ak.yelpcdn.com/bphoto/VO5oowu2vF9MOU03cWxTPA/ms.jpg"},{"city": "Cambridge", "review_count": 155, "name": "Clover Food Lab", "neighborhoods": ["Kendall Square/MIT"], "url": "http://www.yelp.com/biz/clover-food-lab-cambridge", "type": "business", "business_id": "yvxE2zQ3xwoREosD_n7v_w", "full_address": "20 Carleton St\nKendall Square/MIT\nCambridge, MA 02142", "latitude": 42.3611759579352, "state": "MA", "longitude": -71.086234152317, "stars": 4.0, "schools": ["Massachusetts Institute of Technology", "Harvard University"], "_id": {
        "$oid": "55296c4ee4386722a83f3972"
    }, "open": true, "categories": ["Fast Food", "Food Stands", "Restaurants"], "photo_url": "http://s3-media1.ak.yelpcdn.com/bphoto/vue978wZt6bJo-wRiI1RnQ/ms.jpg"},{"city": "Cambridge", "review_count": 400, "name": "Veggie Planet", "neighborhoods": ["Harvard Square"], "url": "http://www.yelp.com/biz/veggie-planet-cambridge", "type": "business", "business_id": "c67b6g737VnEAj80Aaex3Q", "full_address": "47 Palmer St\nHarvard Square\nCambridge, MA 02138", "latitude": 42.3738466, "state": "MA", "longitude": -71.1199904, "stars": 4.0, "schools": ["Massachusetts Institute of Technology", "Harvard University"], "_id": {
        "$oid": "55296c4ee4386722a83f455b "}, "open": true, "categories": ["Vegetarian", "Pizza", "Restaurants"], "photo_url": "http://s3-media1.ak.yelpcdn.com/bphoto/irxv-ztdSCQvZ6MtB9f6FA/ms.jpg"}]

