[{"_id":{"$oid":"553c31883cf3331183882b47"},"business_id":"PE87CZpK2rUDSwTXD9NS_w","categories":["Restaurants"],"city":"Lafayette","full_address":"2 Sagamore Pkwy N\nLafayette, IN 47904","latitude":40.417906,"longitude":-86.858594,"name":"Steak N Shake","neighborhoods":[],"open":true,"photo_url":"http://s3-media4.ak.yelpcdn.com/bphoto/mNbju4pVRzTOgfe-BtyfUA/ms.jpg","review_count":6,"schools":["Purdue University"],"stars":3,"state":"IN","type":"business","url":"http://www.yelp.com/biz/steak-n-shake-lafayette-2"},{"_id":{"$oid":"553c31883cf3331183882bb7"},"business_id":"hMbqc2RGNpTTM39DU6TCpg","categories":["Restaurants"],"city":"Ann Arbor","full_address":"214 E Washington St\nDowntown Ann Arbor\nAnn Arbor, MI 48104","latitude":42.2804358,"longitude":-83.7465827,"name":"Shehan-Shah Indian Cuisine","neighborhoods":["Downtown Ann Arbor"],"open":false,"photo_url":"http://s3-media1.ak.yelpcdn.com/assets/2/www/img/924a6444ca6c/gfx/blank_biz_medium.gif","review_count":2,"schools":["University of Michigan - Ann Arbor"],"stars":2,"state":"MI","type":"business","url":"http://www.yelp.com/biz/shehan-shah-indian-cuisine-ann-arbor"},{"_id":{"$oid":"553c31883cf3331183882d6b"},"business_id":"NpNSOfnPxJKa8_qh83NArw","categories":["Restaurants"],"city":"Champaign","full_address":"1401 S Neil St\nChampaign, IL 61820","latitude":40.1002494,"longitude":-88.2442559,"name":"Subway Sandwiches \u0026 Salads","neighborhoods":[],"open":true,"photo_url":"http://s3-media1.ak.yelpcdn.com/assets/2/www/img/924a6444ca6c/gfx/blank_biz_medium.gif","review_count":3,"schools":["University of Illinois - Urbana-Champaign"],"stars":1,"state":"IL","type":"business","url":"http://www.yelp.com/biz/subway-sandwiches-and-salads-champaign-2"},{"_id":{"$oid":"553c31883cf3331183882d7f"},"business_id":"E400K9Av32vfHp580rY1pg","categories":["Restaurants"],"city":"Los Angeles","full_address":"1401 W Martin Luther King J\nSouth Los Angeles\nLos Angeles, CA 90062","latitude":34.011235,"longitude":-118.30051,"name":"Taco Bell","neighborhoods":["South Los Angeles"],"open":true,"photo_url":"http://s3-media3.ak.yelpcdn.com/bphoto/dFL7r0b78QDjQ5M_vUPZmw/ms.jpg","review_count":2,"schools":["University of Southern California"],"stars":2,"state":"CA","type":"business","url":"http://www.yelp.com/biz/taco-bell-los-angeles-10"},{"_id":{"$oid":"553c31883cf3331183882dc8"},"business_id":"Rt0fJK1BA9dQDWSX1usBMg","categories":["Restaurants"],"city":"New York","full_address":"303 W 116th Street\nHarlem\nNew York, NY 10026","latitude":40.8047595,"longitude":-73.9557708,"name":"New Dragon Kitchen","neighborhoods":["Harlem"],"open":true,"photo_url":"http://s3-media1.ak.yelpcdn.com/assets/2/www/img/924a6444ca6c/gfx/blank_biz_medium.gif","review_count":2,"schools":["Columbia University"],"stars":3.5,"state":"NY","type":"business","url":"http://www.yelp.com/biz/new-dragon-kitchen-new-york"},{"_id":{"$oid":"553c31883cf3331183882e4e"},"business_id":"caMYd-Rhvrg4_K4BLIMUew","categories":["Restaurants"],"city":"Montclair","full_address":"8790 Central Ave\nMontclair, CA 91763","latitude":34.0941927,"longitude":-117.6898242,"name":"Kfc","neighborhoods":[],"open":true,"photo_url":"http://s3-media2.ak.yelpcdn.com/bphoto/3z8rPSiiL25lNM9BzqUY0g/ms.jpg","review_count":4,"schools":["Harvey Mudd College"],"stars":1.5,"state":"CA","type":"business","url":"http://www.yelp.com/biz/kfc-montclair"},{"_id":{"$oid":"553c31883cf3331183882e96"},"business_id":"KFfXz86HU9Svn3y_ngFnsQ","categories":["Restaurants"],"city":"Providence","full_address":"203 Westminster St\nDownCity\nProvidence, RI 02903","latitude":41.8233243,"longitude":-71.4120693,"name":"Mama Teresa of Providence","neighborhoods":["DownCity"],"open":false,"photo_url":"http://s3-media1.ak.yelpcdn.com/assets/2/www/img/924a6444ca6c/gfx/blank_biz_medium.gif","review_count":2,"schools":["Brown University"],"stars":4.5,"state":"RI","type":"business","url":"http://www.yelp.com/biz/mama-teresa-of-providence-providence"},{"_id":{"$oid":"553c31883cf3331183882ea3"},"business_id":"CuQFZg7I6WKGFCdkyYPq6A","categories":["Restaurants"],"city":"Chapel Hill","full_address":"157 E Franklin St\nChapel Hill, NC 27514","latitude":35.9138006,"longitude":-79.0541189,"name":"The Rathskeller","neighborhoods":[],"open":false,"photo_url":"http://s3-media1.ak.yelpcdn.com/assets/2/www/img/924a6444ca6c/gfx/blank_biz_medium.gif","review_count":8,"schools":["University of North Carolina - Chapel Hill"],"stars":3,"state":"NC","type":"business","url":"http://www.yelp.com/biz/the-rathskeller-chapel-hill"},{"_id":{"$oid":"553c31883cf3331183882ef2"},"business_id":"cQdTZ2qHPyhfFytBTtBsbA","categories":["Restaurants"],"city":"Austin","full_address":"400 W 15 St\nBasement of Wells Fargo Tower\nDowntown\nAustin, TX 78701","latitude":30.278854,"longitude":-97.74338,"name":"Sam's Grill","neighborhoods":["Downtown"],"open":true,"photo_url":"http://s3-media1.ak.yelpcdn.com/assets/2/www/img/924a6444ca6c/gfx/blank_biz_medium.gif","review_count":5,"schools":["University of Texas - Austin"],"stars":3.5,"state":"TX","type":"business","url":"http://www.yelp.com/biz/sams-grill-austin"},{"_id":{"$oid":"553c31883cf3331183882f5d"},"business_id":"Cmim8IrcxWZdJ6SN6CDSAw","categories":["Restaurants"],"city":"Blacksburg","full_address":"400 Turner St NW\nBlacksburg, VA 24060","latitude":37.2329647,"longitude":-80.4215769,"name":"Boston Beanery","neighborhoods":[],"open":false,"photo_url":"http://s3-media1.ak.yelpcdn.com/assets/2/www/img/924a6444ca6c/gfx/blank_biz_medium.gif","review_count":3,"schools":["Virginia Tech"],"stars":3,"state":"VA","type":"business","url":"http://www.yelp.com/biz/boston-beanery-blacksburg"}]